station_id	name	altitude	lat	lon
1000005	Visviri	4080	-17.594999313354492	-69.48310089111328
1201005	Rio Caracarani En Humapalca	3908	-17.84280014038086	-69.69940185546875
1001005	Caquena	4400	-18.05419921875	-69.20169830322266
1202009	Pacollo	4185	-18.17690086364746	-69.50920104980469
1202012	Putre (Dcp)	3560	-18.19499969482422	-69.55889892578125
1202010	Putre	3545	-18.199199676513672	-69.560302734375
1020017	Parinacota Ex Endesa	4420	-18.204200744628906	-69.26830291748047
1010010	Chungara Ajata	4585	-18.235300064086914	-69.18329620361328
1300004	Murmuntane	3550	-18.351900100708008	-69.5519027709961
1211006	Lluta	290	-18.41029930114746	-70.16919708251953
1310018	Arica Oficina	20	-18.477500915527344	-70.32080078125
1310021	U. Del Norte	55	-18.483299255371094	-70.2936019897461
1021002	Rio Guallatire En Guallatire	4280	-18.493099212646484	-69.14939880371094
1021007	Guallatire	4240	-18.498300552368164	-69.15470123291016
1310022	El Buitre Aerodromo	110	-18.511899948120117	-70.2842025756836
1310019	Azapa	365	-18.515600204467773	-70.18060302734375
1030003	Chilcaya	4270	-18.793899536132812	-69.08439636230469
1410011	Chaca	350	-18.8169002532959	-70.1500015258789
1410012	Codpa	1870	-18.832199096679688	-69.743896484375
1502006	Cuya	200	-19.1117000579834	-70.12689971923828
1610004	Q. Camia 3 Km. A. Arriba De Tarcavire	3848	-19.118099212646484	-69.24469757080078
1041003	Colchane (T. Isluga)	3700	-19.276399612426758	-68.63780212402344
1730018	Lagunillas (Pampa Lirima)	4020	-19.933300018310547	-68.83689880371094
1050007	Coyacagua	4013	-20.0531005859375	-68.80750274658203
1740002	Cerro Colorado	2510	-20.065000534057617	-69.27030181884766
1700010	Huara En Fuerte Baquedano	1100	-20.130800247192383	-69.74970245361328
1051003	Salar Huasco	3800	-20.276100158691406	-68.88610076904297
1700008	Esmeralda	1115	-20.48419952392578	-69.38140106201172
1080001	Ujina	4300	-20.971399307250977	-68.62750244140625
2000001	Ollague	3700	-21.22330093383789	-68.24939727783203
2020001	Cebollar	3730	-21.531099319458008	-68.3386001586914
2101003	Lequena	3320	-21.65530014038086	-68.66110229492188
2112008	Quillagua	802	-21.66029930114746	-69.53579711914062
2020002	Ascotan	3970	-21.725299835205078	-68.27559661865234
2103008	Parshall N 2	3318	-21.942800521850586	-68.51750183105469
2103009	Ojos San Pedro	3800	-21.970600128173828	-68.31279754638672
2104008	Conchi Embalse	3010	-22.024999618530273	-68.62419891357422
2104009	Conchi Muro Embalse	3000	-22.02669906616211	-68.62079620361328
2103010	Inacaliri	4040	-22.027799606323242	-68.06610107421875
2210002	Tocopilla	150	-22.079700469970703	-70.189697265625
2105016	Linzor	4100	-22.229700088500977	-68.02279663085938
2105015	Turi	3070	-22.240800857543945	-68.28810119628906
2105017	Toconce	3310	-22.259199142456055	-68.17330169677734
2105018	Ayquina	3031	-22.275299072265625	-68.31829833984375
2105020	Salado Embalse	3200	-22.285600662231445	-68.20279693603516
2105021	Caspana	3260	-22.336700439453125	-68.21219635009766
2104010	Chiu-Chiu	2524	-22.337799072265625	-68.63670349121094
2105022	El Tatio	4370	-22.3710994720459	-68.01329803466797
2112009	Coya Sur	1250	-22.39389991760254	-69.62249755859375
2110013	Calama	2300	-22.449399948120117	-68.90440368652344
2700001	Sierra Gorda	1616	-22.88920021057129	-69.3218994140625
2510006	San Pedro De Atacama	2450	-22.90530014038086	-68.20030212402344
2500016	Toconao Experimental	2500	-23.188899993896484	-67.997802734375
2710002	Baquedano	1032	-23.333599090576172	-69.8396987915039
2240000	Liceo CientÍFico Humanista La Chimba	0	-23.554399490356445	-70.39330291748047
2500019	Socaire	3251	-23.58690071105957	-67.89250183105469
2710003	Antofagasta	50	-23.59749984741211	-70.38670349121094
2500020	Peine	2460	-23.684200286865234	-68.05809783935547
2660001	Monturaqui	3430	-24.341400146484375	-68.435302734375
2942001	Aguas Verdes	1560	-25.399999618530273	-69.96330261230469
2943002	Tal-Tal (Dcp)	0	-25.40329933166504	-70.47969818115234
3210001	Las Vegas	2250	-26.6781005859375	-69.66560363769531
3450004	Copiapo	385	-27.377199172973633	-70.33080291748047
3430007	Los Loros	940	-27.83169937133789	-70.11190032958984
3430006	Lautaro Embalse	1110	-27.978300094604492	-70.00330352783203
3414001	Rio Pulido En Vertedero	1310	-28.085800170898438	-69.94080352783203
3414002	Iglesia Colorada	1550	-28.15719985961914	-69.88079833984375
3826003	Huasco Bajo	50	-28.47249984741211	-71.19309997558594
3823004	La Compaia (Vallenar)	430	-28.576099395751953	-70.80809783935547
3820004	Santa Juana	560	-28.667200088500977	-70.6624984741211
3820002	Rio Huasco En Chepica	600	-28.69969940185547	-70.55000305175781
3806002	El Transito	1100	-28.87310028076172	-70.2822036743164
3815004	San Felix	1150	-28.931100845336914	-70.4614028930664
3802001	Rio Conay En Las Lozas	0	-28.945600509643555	-70.1010971069336
3802005	Conay	1450	-28.975000381469727	-70.1532974243164
3804005	El Parral	1400	-28.979700088500977	-70.19860076904297
3814003	Rio Carmen En El Corral	2000	-29.109399795532227	-70.41390228271484
4120001	El Trapiche	300	-29.37310028076172	-71.11810302734375
4335002	La Serena (Escuela Agricola)	15	-29.906099319458008	-71.25559997558594
4308001	Rio Turbio En Varillar	890	-29.94580078125	-70.53279876708984
4302001	Rio Toro Antes Junta Rio La Laguna	2165	-29.971099853515625	-70.0927963256836
4302014	Juntas	2150	-29.976900100708008	-70.09439849853516
4308003	Rivadavia	820	-29.97719955444336	-70.56169891357422
4314002	Rio Claro En Rivadavia	820	-29.978099822998047	-70.55249786376953
4323007	Almendral	370	-29.982200622558594	-70.9186019897461
4321001	Puclaro Embalse	460	-29.996400833129883	-70.85559844970703
4400002	Pan De Azucar	100	-30.002199172973633	-71.25920104980469
4311005	La Ortiga	1560	-30.193899154663086	-70.48190307617188
4301005	La Laguna Embalse	3160	-30.20330047607422	-70.04219818115234
4502005	Hurtado	1100	-30.286699295043945	-70.69609832763672
4502004	La Cortadera	920	-30.350299835205078	-70.7699966430664
4503001	Rio Hurtado En Angostura De Pangue	485	-30.438600540161133	-71.002197265625
4506007	Recoleta Embalse	350	-30.506900787353516	-71.09970092773438
4551004	Ovalle (Escuela Agricola)	340	-30.552799224853516	-71.16419982910156
4557001	Salala	100	-30.678300857543945	-71.52999877929688
4540006	Paloma Embalse	320	-30.69580078125	-71.03610229492188
4523004	Puntilla San Juan	430	-30.702499389648438	-70.91780090332031
4523002	Rio Grande En Puntilla San Juan	420	-30.704700469970703	-70.92440032958984
4537003	El Tome	420	-30.817800521850586	-70.97059631347656
4513004	Caren	740	-30.854700088500977	-70.77079772949219
4535001	Cogoti Embalse	740	-31.00779914855957	-71.08560180664062
4511003	Las Ramadas	1380	-31.01810073852539	-70.58580017089844
4531002	Rio Cogoti Entrada Embalse Cogoti	670	-31.032499313354492	-71.04029846191406
4530001	Rio Cogoti En Fraguita	1065	-31.111900329589844	-70.88500213623047
4721001	Rio Illapel En Las Burras	1079	-31.506900787353516	-70.8125
4722001	Santa Virginia	980	-31.55030059814453	-70.83529663085938
4723001	Rio Illapel En Huintil	775	-31.560800552368164	-70.96440124511719
4726003	Illapel Dga	290	-31.645000457763672	-71.19080352783203
4710001	La Tranquilla	1000	-31.899999618530273	-70.67060089111328
4810003	Caimanes	450	-31.932199478149414	-71.13610076904297
4902002	Los Condores	190	-32.10860061645508	-71.3125
5200006	Alicahue	750	-32.34080123901367	-70.75279998779297
5414001	Rio Putaendo En Resguardo Los Patos	1218	-32.50170135498047	-70.58110046386719
5404001	Canal Colorado En Bocatoma	1391	-32.83470153808594	-70.35330200195312
5410002	Rio Aconcagua En Chacabuquito	950	-32.85029983520508	-70.5093994140625
5410006	Vilcuya	1100	-32.86029815673828	-70.4719009399414
5401003	Rio Juncal En Juncal	1800	-32.86249923706055	-70.1675033569336
5426004	Quillota	130	-32.89580154418945	-71.20919799804688
5403002	Rio Aconcagua En Rio Blanco	1420	-32.906700134277344	-70.30359649658203
5500003	Las Salinas	20	-33.00189971923828	-71.54669952392578
5733008	Rungue Embalse	700	-33.01940155029297	-70.90809631347656
5510001	Rodelillo	110	-33.05030059814453	-71.58329772949219
5510005	Cerro Colorado Armada De Chile	510	-33.08190155029297	-71.61689758300781
5427006	Lliu-Lliu Embalse	260	-33.09859848022461	-71.21440124511719
5510002	Lago Peuelas	360	-33.14500045776367	-71.5552978515625
5706003	Valle Olivares	2787	-33.1869010925293	-70.11219787597656
5721017	Estero Yerba Loca En Piedra Carvajal	3250	-33.22140121459961	-70.27359771728516
5721016	Rio San Francisco Antes Junta Estero Yerba Loca	1550	-33.30860137939453	-70.3572006225586
5722001	Estero Arrayan En La Montosa	880	-33.325599670410156	-70.45610046386719
5721001	Estero Yerba Loca Antes Junta San Francisco	1350	-33.341400146484375	-70.36360168457031
5722002	Rio Mapocho En Los Almendros	966	-33.37030029296875	-70.45079803466797
5730012	Cerro Calan	848	-33.39500045776367	-70.53669738769531
5744002	Los Panguiles	190	-33.4385986328125	-71.02559661865234
5730016	Terraza Oficinas Centrales Dga	560	-33.44860076904297	-70.64440155029297
5706001	Rio Olivares Antes Junta Rio Colorado	1500	-33.48780059814453	-70.13670349121094
5705001	Rio Colorado Antes Junta Rio Olivares	1500	-33.4900016784668	-70.13420104980469
5737002	Rio Mapocho Rinconada De Maipu	440	-33.49610137939453	-70.81670379638672
5730015	Campus San Joaquin U.C.	570	-33.497501373291016	-70.61419677734375
5730039	Quebrada De Macul	950	-33.50170135498047	-70.51439666748047
5710001	Rio Maipo En El Manzano	850	-33.59389877319336	-70.37920379638672
5703009	Laguna Negra	2780	-33.66579818725586	-70.10780334472656
5711003	Pirque	659	-33.67359924316406	-70.58689880371094
5703008	El Yeso Embalse	2475	-33.676700592041016	-70.0886001586914
5740005	Melipilla	168	-33.680301666259766	-71.19969940185547
5702011	Glaciar San Franciscoen Aguas Panimavida	2220	-33.805301666259766	-70.06999969482422
5702001	Rio Volcan En Queltehues	1365	-33.805599212646484	-70.20890045166016
5701008	Queltehues	1450	-33.81639862060547	-70.21720123291016
5701005	Las Melosas	1527	-33.89939880371094	-70.1980972290039
6011001	Estero De La Cadena Antes Junta Rio Cachapoal	440	-34.184200286865234	-70.84359741210938
6003001	Rio Cachapoal 5 Km. Aguas Abajo Junta Cortaderal	1127	-34.34640121459961	-70.37640380859375
6000003	Rio Las Leas Ante Junta Rio Cachapoal	1296	-34.36280059814453	-70.30560302734375
6000004	Laguna El Yeso	2140	-34.407798767089844	-70.20999908447266
6015003	Rengo	310	-34.42169952392578	-70.86669921875
6013005	Popeta	480	-34.4369010925293	-70.77940368652344
6013001	Rio Claro En Hacienda Las Nieves	720	-34.4921989440918	-70.70279693603516
6013008	Laguna Los Cristales	2343	-34.56060028076172	-70.50969696044922
6028001	Rio Tinguiririca Bajo Los Briones	560	-34.71860122680664	-70.82669830322266
7120002	Laguna De Torca	28	-34.76750183105469	-72.06500244140625
6034003	Convento Viejo	239	-34.76940155029297	-71.13310241699219
7118003	Curico	195	-34.98109817504883	-71.23609924316406
7116005	Potrero Grande	445	-35.18330001831055	-71.0978012084961
7384002	Constitucion	10	-35.32419967651367	-72.40889739990234
7381003	Pencahue	55	-35.372501373291016	-71.8324966430664
7381002	Fundo El Peral	110	-35.40060043334961	-71.7833023071289
7378004	Talca	110	-35.41939926147461	-71.66059875488281
7378002	Talca U.C.	130	-35.43579864501953	-71.61969757080078
7379002	Rio Claro En Rauquen	64	-35.45249938964844	-71.7332992553711
7378003	Colorado	420	-35.638099670410156	-71.2605972290039
7320003	Rio Claro En San Carlos	550	-35.69889831542969	-71.06829833984375
7320002	Armerillo	492	-35.70109939575195	-71.07720184326172
7321002	Rio Maule En Armerillo	470	-35.70610046386719	-71.11389923095703
7306001	Rio Cipreses En Dasague Laguna La Invernada	1300	-35.73809814453125	-70.77780151367188
7303000	Rio Maule En Los BaÑOs	980	-35.819698333740234	-70.7605972290039
7358007	Linares	157	-35.83810043334961	-71.59529876708984
7317001	Rio Melado En La Lancha Dga	650	-35.849998474121094	-71.06670379638672
7317005	Rio Melado En El Salto	730	-35.88420104980469	-71.01920318603516
7355007	Ancoa Embalse	421	-35.91059875488281	-71.2957992553711
7301000	Lo Aguirre	2000	-35.96969985961914	-70.5718994140625
7301001	Los Condores	2172	-36.01060104370117	-70.55889892578125
7345001	Parral	175	-36.187801361083984	-71.82830047607422
7331002	Digua Embalse	390	-36.25579833984375	-71.54810333251953
7314002	Guayquivilo	1200	-36.29330062866211	-70.91809844970703
8113001	Coihueco Embalse	314	-36.64080047607422	-71.79889678955078
8105004	Caracol	610	-36.651100158691406	-71.3949966430664
8105003	La Punilla	840	-36.65829849243164	-71.32779693603516
8130006	Diguillin	670	-36.86859893798828	-71.64250183105469
8318002	Quilaco	231	-37.685001373291016	-72.00579833984375
8316002	Rio Huequecura Aguas Arriba De Embalse Angostura	330	-37.7047004699707	-71.76830291748047
8358002	Angol (La Mona)	113	-37.77939987182617	-72.63719940185547
8317004	Rio Biobio En La Culebra	338	-37.7963981628418	-71.69889831542969
8358003	El Vergel (Angol)	75	-37.81719970703125	-72.6500015258789
8313002	Embalse Pangue	512	-37.91830062866211	-71.59609985351562
8351003	Collipulli	240	-37.95830154418945	-72.42559814453125
8822008	Contulmo	41	-38.01860046386719	-73.2300033569336
8312002	Embalse Ralco	742	-38.05830001831055	-71.43440246582031
8308000	Rio Lomin En Puente La Junta	755	-38.06610107421875	-71.34970092773438
8307002	Rio Bio-Bio En Llanquen	767	-38.200801849365234	-71.29889678955078
8304004	Lonquimay	931	-38.4536018371582	-71.37419891357422
9120002	Manzanar	790	-38.46310043334961	-71.69920349121094
9120003	Malalcahuello	950	-38.470298767089844	-71.57530212402344
9129005	Pueblo Nuevo (Temuco)	119	-38.712799072265625	-72.55580139160156
9400000	Rio Truful En Camino Internacional	520	-38.844398498535156	-71.65360260009766
9135003	Freire Sendos	100	-38.95920181274414	-72.6082992553711
9423001	Rio Tolten En Coipue	200	-39.099998474121094	-72.38330078125
9420002	Pucon	230	-39.275299072265625	-71.95030212402344
10123004	Llancahue	70	-39.85609817504883	-73.17859649658203
10100002	Rio Fui En Desage Lago Pirihueico	600	-39.874698638916016	-71.88970184326172
10360002	Adolfo Matthei	55	-40.58829879760742	-73.10690307617188
10344003	Rio Rahue Antes Junta Rio Negro	40	-40.630001068115234	-73.17829895019531
10355003	Rio Forrahue En Rio Negro	52	-40.79560089111328	-73.21440124511719
10512000	Llanada Grande	248	-41.424198150634766	-71.9385986328125
10425001	Puerto Montt	90	-41.459999084472656	-72.93779754638672
10523001	Puelo	5	-41.651100158691406	-72.31169891357422
10610001	Hornopiren	25	-41.93830108642578	-72.43499755859375
10683002	Rio Blanco En Chaiten	10	-42.91830062866211	-72.70390319824219
11023002	Villa Santa Lucia	327	-43.41279983520508	-72.36579895019531
11043001	Marin Balmaceda	10	-43.77170181274414	-72.95469665527344
11041001	La Junta	45	-43.97079849243164	-72.40560150146484
11120001	Puerto Puyuhuapi	10	-44.32279968261719	-72.55970001220703
11180000	Islas Huichas	6	-45.15530014038086	-73.51640319824219
11342002	Puerto Aysen	10	-45.40060043334961	-72.69999694824219
11316004	Coyhaique Alto	730	-45.48030090332031	-71.60440063476562
11316003	Coyhaique (Escuela Agricola)	343	-45.57389831542969	-72.02860260009766
11505001	Rio Ibaez En Desembocadura	220	-46.26919937133789	-71.99079895019531
11521005	Lago General Carrera Fachinal	18	-46.54249954223633	-72.22669982910156
11521002	Chile Chico	215	-46.54359817504883	-71.70890045166016
11440000	Glaciar San Rafael	8	-46.6432991027832	-73.85749816894531
11532000	Rio Nef Antes Junta Estero El Revalse	281	-47.13779830932617	-73.08689880371094
11536004	Rio Baker En Angostura Chacabuco	160	-47.14139938354492	-72.72579956054688
11540000	Lago Cachet 2 En Glaciar Colonia	427	-47.19810104370117	-73.25
11536001	Rio Cochrane En Cochrane	140	-47.25170135498047	-72.56439971923828
11541000	Rio Colonia En Nacimiento	146	-47.33919906616211	-73.11470031738281
11546001	Caleta Tortel	10	-47.79970169067383	-73.53579711914062
11711000	Rio Pascua Ante Junta Rio Quetru	20	-48.15919876098633	-73.08889770507812
11702000	Lago Ohiggins En Villa Ohiggins	300	-48.51689910888672	-72.59529876708984
12000000	Glaciar Tempano	20	-48.83470153808594	-74.18309783935547
11704001	Candelario Mancilla	300	-48.877498626708984	-72.7394027709961
11706000	Glaciar Ohiggins	5	-48.92720031738281	-73.11720275878906
12280004	Lago Dickson	200	-50.82279968261719	-73.11250305175781
12283001	Cerro Guido	230	-50.89860153198242	-72.3313980102539
12284006	Rio Las Chinas En Cerro Guido	75	-51.05080032348633	-72.51689910888672
12288000	Glaciar Tindall	345	-51.11579895019531	-73.28250122070312
12286001	Torres Del Paine	25	-51.184200286865234	-72.96690368652344
12284010	Cerro Castillo	130	-51.2599983215332	-72.32720184326172
12293001	Puerto Natales	45	-51.73360061645508	-72.47810363769531
12680001	Monte Aymond	160	-52.164398193359375	-69.60780334472656
12620000	Penitente Alto	290	-52.20920181274414	-71.68060302734375
12403000	Seno Obstruccin	4	-52.20940017700195	-72.47830200195312
12622002	Villa Tehuelche	190	-52.44139862060547	-71.4021987915039
12452001	Rio Perez En Desembocadura	20	-52.549198150634766	-71.97470092773438
12802001	Rio Side En Cerro Sombrero	10	-52.76810073852539	-69.2771987915039
12449002	Cordillera Riesco	456	-52.842498779296875	-71.76419830322266
12806004	Bahia San Felipe	10	-52.86970138549805	-69.93190002441406
12586004	Punta Arenas	5	-53.12329864501953	-70.877197265625
12586009	Canal De Trasvase Estero Llau-Llau	80	-53.125	-70.93579864501953
12586010	Magdalena Giglio 2	432	-53.13970184326172	-71.05609893798828
12586006	Cerro Mirador	580	-53.184200286865234	-71.08329772949219
12809001	Porvenir	35	-53.29079818725586	-70.37000274658203
12815001	Onaisin En Maria Cristina	30	-53.305599212646484	-69.26750183105469
12863001	San Sebastian	20	-53.32170104980469	-68.6613998413086
12582003	Lago Parrillar	320	-53.40250015258789	-71.24970245361328
12873001	Russfin	225	-53.7593994140625	-69.18920135498047
12821000	Rio Condor	10	-53.99639892578125	-70.0781021118164
12876003	Pampa Huanaco	150	-54.04970169067383	-68.79969787597656
12879000	Lago Deseado	170	-54.337799072265625	-68.82420349121094
12878002	Bahia Yendegaia	10	-54.88169860839844	-68.68250274658203
12930004	Puerto Navarino	10	-54.92559814453125	-68.32360076904297
12930001	Rio Robalo En Puerto Williams	80	-54.9468994140625	-67.63919830322266
12930005	Puerto Toro	10	-55.08219909667969	-67.07579803466797
950002	Arturo Prat Base Antartica	5	-62.478599548339844	-59.66419982910156
950003	Bernardo O'Higgins Base Antartica	10	-63.32080078125	-57.89939880371094
180005	Chacalluta Arica Ap.	63	-18.35140037536621	-70.33580017089844
200006	Diego Aracena Iquique Ap.	52	-20.53969955444336	-70.17859649658203
230001	Cerro Moreno Antofagasta Ap.	113	-23.450300216674805	-70.44110107421875
270008	Desierto De Atacama Caldera Ap.	204	-27.263900756835938	-70.77420043945312
290004	La Florida La Serena Ad.	142	-29.917499542236328	-71.20110321044922
330007	Rodelillo Ad.	330	-33.03670120239258	-71.5342025756836
330020	Quinta Normal Santiago	527	-33.44499969482422	-70.68280029296875
340031	General Freire Curico Ad.	225	-34.966400146484375	-71.2166976928711
360011	Bernardo O'Higgins Chillan Ad.	151	-36.58720016479492	-72.04000091552734
360019	Carriel Sur Concepcion.	12	-36.77920150756836	-73.06220245361328
380013	Maquehue Temuco Ad.	92	-38.77000045776367	-72.63690185546875
390006	Pichoy Valdivia Ad.	21	-39.65060043334961	-73.08080291748047
400009	Canal Bajo Osorno Ad.	61	-40.60499954223633	-73.06079864501953
410005	El Tepual Puerto Montt Ap.	85	-41.435001373291016	-73.0978012084961
450001	Puerto Aysen Ad.	10	-45.39609909057617	-72.66390228271484
450004	Teniente Vidal Coyhaique Ad.	310	-45.59389877319336	-72.10859680175781
450005	Balmaceda Ad.	517	-45.91279983520508	-71.69419860839844
460001	Chile Chico Ad.	306	-46.5807991027832	-71.69280242919922
470001	Lord Cochrane Ad.	204	-47.243900299072266	-72.5864028930664
520006	Punta Arenas	38	-53.003299713134766	-70.84500122070312
550001	Guardia Marina Zanartu Pto Williams Ad.	10	-54.93170166015625	-67.6156005859375
950001	Eduardo Frei Montalva Antartica	1	-62.19969940185547	-58.96419906616211
220002	El Loa Calama Ad.	2293	-22.498899459838867	-68.9072036743164
270001	Mataveri Isla De Pascua Ap.	48	-27.160600662231445	-109.427001953125
330021	Pudahuel Santiago	482	-33.39189910888672	-70.79440307617188
330019	Eulogio Sanchez Tobalaba Ad.	650	-33.45439910888672	-70.54779815673828
330031	Juan Fernandez Estacion Meteorologica	35	-33.63669967651367	-78.83499908447266
330030	Santo Domingo Ad.	75	-33.654998779296875	-71.61419677734375
370033	Maria Dolores Los Angeles Ad.	120	-37.402801513671875	-72.42250061035156
420004	Chaiten Ad.	10	-42.930301666259766	-72.70079803466797
430002	Futaleufu Ad.	347	-43.188899993896484	-71.85250091552734
430004	Alto Palenaad.	281	-43.611698150634766	-71.8052978515625
510005	Teniente Gallardo Puerto Natales Ad.	69	-51.667198181152344	-72.52890014648438
530005	Fuentes Martinez Porvenir Ad.	27	-53.1875	-70.32029724121094
COM00080002	El Embrujo	3	13.357000350952148	-81.35800170898438
CO000080001	San Andres (Isla)/S	6	12.583000183105469	-81.71700286865234
COM00080035	Almirante Padilla	13	11.526000022888184	-72.9260025024414
VEM00080403	Jose Leonardo Chirinos	16	11.414999961853027	-69.68099975585938
COM00080009	Simon Bolivar	7	11.119999885559082	-74.23100280761719
VEM00080421	Porlamar (Aeropuerto Int. Del	19	10.916999816894531	-63.96699905395508
COM00080028	Ernesto Cortissoz	30	10.890000343322754	-74.78099822998047
VEM00080415	Simon Bolivar Intl	72	10.602999687194824	-66.99099731445312
VE000080423	Guiria	14	10.583000183105469	-62.31700134277344
VEM00080407	La Chinita Intl	72	10.557999610900879	-71.72799682617188
VEM00080476	La Canada	26	10.517000198364258	-71.6500015258789
VEM00080416	Generalisimo Francisco De Mir	856	10.484999656677246	-66.84400177001953
VEM00080420	Antonio Jose De Sucre	4	10.449999809265137	-64.12999725341797
COM00080022	Rafael Nunez	1	10.442000389099121	-75.51300048828125
COM00080036	Alfonso Lopez Pumarejo	147	10.4350004196167	-73.25
VEM00080479	Palmichal	1000	10.300000190734863	-68.23300170898438
VE000080413	Maracay - B.A. Sucr	437	10.25	-67.6500015258789
VEM00080472	Arturo Michelena Intl	430	10.149999618530273	-67.9280014038086
VEM00080419	General Jose Antonio Anzoateg	8	10.107000350952148	-64.68900299072266
VEM00080410	Barquisimeto Intl	622	10.043000221252441	-69.35900115966797
VE000002417	San Juan De Los Mor	429	9.916999816894531	-67.33300018310547
VE000080425	Mene Grande	28	9.817000389099121	-70.93299865722656
VEM00080435	Maturin	68	9.74899959564209	-63.15299987792969
VEM00080427	Oswaldo Guevara Mujica	195	9.553000450134277	-69.23799896240234
VEM00080432	Carrizal	161	9.416999816894531	-66.91699981689453
VEM00080426	Dr Antonio Nicolas Briceno	628	9.34000015258789	-70.58399963378906
VE000002589	Valle De La Pascua	125	9.232999801635742	-66.0
VEM00080428	Guanare	185	9.027000427246094	-69.75499725341797
VEM00080442	Calabozo	100	8.925000190734863	-67.41699981689453
COM00080063	Los Garzones	11	8.824000358581543	-75.82599639892578
VEM00080437	El Vigia	103	8.633000373840332	-71.6500015258789
VEM00080440	Barinas	203	8.619999885559082	-70.22100067138672
VE000080438	Merida	1498	8.600000381469727	-71.18299865722656
VEM00080444	Ciudad Bolivar	60	8.121999740600586	-63.5369987487793
COM00080097	Camilo Daza	334	7.927999973297119	-72.51200103759766
VEM00080447	San Antonio Del Tachira	400	7.841000080108643	-72.44000244140625
COM00080084	Antonio Roldan Betancourt	14	7.811999797821045	-76.71600341796875
VE000080450	San Fernando	47	7.679999828338623	-67.41999816894531
VEM00080475	Mayor Buenaventura Vivas	330	7.565000057220459	-72.03500366210938
VEM00080448	Guasdualito	130	7.210999965667725	-70.75599670410156
COM00080094	Palonegro	1188	7.126999855041504	-73.18499755859375
COM00080099	Santiago Perez	128	7.068999767303467	-70.73699951171875
COM00080091	Yariguies	126	7.02400016784668	-73.80699920654297
GYM00081001	Georgetown	2	6.800000190734863	-58.150001525878906
GYW00010502	Georgetown	29	6.5	-58.25
COM00080110	Olaya Herrera	1506	6.21999979019165	-75.59100341796875
VE000005484	Puerto Carreno/A.Gu	55	6.166999816894531	-67.5
COM00080112	Jose Maria Cordova	2142	6.164999961853027	-75.4229965209961
COM00080144	El Carano	62	5.690999984741211	-76.64099884033203
VEM00080457	Casique Aramare	75	5.619999885559082	-67.60600280761719
FGM00081401	St Laurent Du Maron	9	5.5	-54.03300094604492
NSM00081225	Johan A Pengel Intl	18	5.453000068664551	-55.1879997253418
FG000081405	Rochambeau	9	4.833000183105469	-52.367000579833984
COM00080210	Matecana	1346	4.813000202178955	-75.73999786376953
CO000080222	Bogota/Eldorado	2548	4.701000213623047	-74.1500015258789
VE000080462	Santa Elena De Uair	907	4.599999904632568	-61.117000579833984
CO000080241	Las Gaviotas	167	4.550000190734863	-70.91699981689453
COM00080211	El Eden	1216	4.453000068664551	-75.76599884033203
COM00080214	Perales	949	4.421999931335449	-75.13300323486328
COM00080234	Vanguardia	425	4.168000221252441	-73.61399841308594
FGM00081408	Saint Georges	7	3.882999897003174	-51.79999923706055
FGM00081415	Maripasoula	106	3.632999897003174	-54.03300094604492
CO000080259	Cali/Alfonso Bonill	969	3.549999952316284	-76.38300323486328
COM00080315	Benito Salas	446	2.950000047683716	-75.29399871826172
BR008161001	Caracarai	95	1.8329999446868896	-61.132999420166016
CO000080342	Pasto/Antonio Narin	1826	1.4170000553131104	-77.26699829101562
COM00080370	San Luis	2976	0.8619999885559082	-77.6719970703125
ECM00084036	San Gabriel	2860	0.6000000238418579	-77.81700134277344
BRM00082098	Macapa	17	0.050999999046325684	-51.071998596191406
ECM00084050	La Concordia	360	0.017000000923871994	-79.36699676513672
BRM00082106	Sao Gabriel Da Cach	90	-0.13300000131130219	-67.08300018310547
ECM00084088	Izobamba	3058	-0.3499999940395355	-78.55000305175781
BR000047002	Salinopolis	14	-0.6169999837875366	-47.382999420166016
ECM00084132	Nuevo Rocafuerte	265	-0.9169999957084656	-75.41699981689453
ECM00084008	San Cristobal	19	-0.9169999957084656	-89.61699676513672
BRM00082113	Barcelos	34	-0.9810000061988831	-62.91999816894531
ECM00084135	Portoviejo	60	-1.0329999923706055	-80.44999694824219
EC000000006	Pichilingue	73	-1.100000023841858	-79.46700286865234
BRM00082193	Val De Cans Intl	17	-1.378999948501587	-48.47600173950195
ECM00084179	Puyo	960	-1.5	-77.9000015258789
BR000254000	Santarem-Aeroporto	60	-2.433000087738037	-54.71699905395508
ECM00084226	Canar	3083	-2.549999952316284	-78.93299865722656
BRM00082336	Itacoatiara	43	-3.127000093460083	-58.48099899291992
BR000352000	Altamira	112	-3.200000047683716	-52.20000076293945
PEM00084370	Pedro Canga	35	-3.552999973297119	-80.38099670410156
PE000084377	Iquitos	126	-3.7829999923706055	-73.30000305175781
BRM00082361	Tucurui	253	-3.7860000133514404	-49.720001220703125
BR000082400	Fernando De Noronha	59	-3.8499999046325684	-32.41699981689453
ECM00084270	Loja/La Argelia	2160	-4.0329999923706055	-79.19999694824219
COM00080398	Alfredo Vasquez Cobo	84	-4.192999839782715	-69.94300079345703
BRM00082410	Benjamin Constant	65	-4.382999897003174	-70.03299713134766
PEM00084390	Capitan Montes	86	-4.577000141143799	-81.25399780273438
BR037041370	Teresina (Aeroporto	67	-5.050000190734863	-42.81700134277344
PEM00084401	Capitan Fap Guillermo Concha	35	-5.205999851226807	-80.61599731445312
BRM00082562	Maraba	109	-5.36899995803833	-49.13800048828125
BRM00082533	Manicore	53	-5.810999870300293	-61.27799987792969
PEM00084425	Moises Benzaquen Rengifo	179	-5.894000053405762	-76.11799621582031
PE000084444	Chachapoyas	2540	-6.199999809265137	-77.8499984741211
PE000084455	Tarapoto	282	-6.5	-76.36699676513672
PEM00084452	Capt Jose A  Quinones Gonzale	30	-6.7870001792907715	-79.8280029296875
BR039402250	Joao Pessoa	66	-7.099999904632568	-34.867000579833984
PEM00084472	Gen Fap Armando Revoredo Igle	2676	-7.138999938964844	-78.48899841308594
PEM00084474	Juanjui	350	-7.169000148773193	-76.72899627685547
BR038484280	Campina Grande	502	-7.2170000076293945	-35.882999420166016
BRM00082723	Labrea	60	-7.25	-64.83300018310547
BR000082704	Cruzeiro Do Sul	194	-7.632999897003174	-72.66699981689453
BR038536790	Triunfo	1020	-7.849999904632568	-38.132999420166016
PEM00084501	Capitan Carlos Martinez De Pi	32	-8.081000328063965	-79.10900115966797
BR000082861	Conceicao Do Araguaia	4294966296	-8.25	-49.279998779296875
PEM00084515	Cap Fap David Abenzur Rengifo	156	-8.378000259399414	-74.5739974975586
PEM00084534	Tingo Maria	665	-9.133000373840332	-75.94999694824219
PEM00084531	Teniente Jaime A De Montreuil	21	-9.149999618530273	-78.52400207519531
PEM00084542	Comandante Fap German Arias G	2750	-9.347000122070312	-77.5979995727539
BR038837530	Paulo Afonso	269	-9.399999618530273	-38.21699905395508
BR038983570	Maceio (Aeroporto)	118	-9.517000198364258	-35.78300094604492
BR000956000	Alta Floresta (Aero	289	-9.866999626159668	-56.099998474121094
PEM00084564	Alferez Fap D F Fernandini	1850	-9.878999710083008	-76.20500183105469
BR001065002	Guayaramerin	130	-10.817000389099121	-65.3489990234375
BL000085043	Riberalta	141	-11.0	-66.11699676513672
BL000085041	Cobija	4294966296	-11.029999732971191	-68.77999877929688
PEM00084628	Jorge Chavez Intl	34	-12.022000312805176	-77.11399841308594
PEM00084658	Padre Aldamiz	201	-12.61400032043457	-69.22899627685547
BRM00083208	Vilhena	615	-12.694000244140625	-60.097999572753906
BLM00085104	San Joaquin	140	-13.067000389099121	-64.66699981689453
PEM00084673	Coronel Fap Alfredo Mendivil	2718	-13.154999732971191	-74.2040023803711
BR047635180	Bom Jesus Da Lapa	443	-13.267000198364258	-43.41699981689453
BLM00085109	San Ramon	140	-13.300000190734863	-64.69999694824219
BL000085114	Magdalena	140	-13.333000183105469	-64.11699676513672
PEM00084686	Teniente Alejandro Velasco As	3310	-13.53600025177002	-71.93900299072266
PEM00084691	Pisco Intl	12	-13.744999885559082	-76.22000122070312
BLM00085123	Santa Ana Del Yacuma	144	-13.76200008392334	-65.43499755859375
BLM00085139	Santa Rosa	225	-14.067000389099121	-66.78299713134766
BLM00085140	Reyes	280	-14.300000190734863	-67.36699676513672
BL000085141	Rurrenabaque	4294966296	-14.470000267028809	-67.56999969482422
BLM00085151	Apolo	1415	-14.732999801635742	-68.41699981689453
BLM00085154	Tte Av Jorge Henrich Arauz	155	-14.819000244140625	-64.91799926757812
BRM00083344	Vitoria Da Conquista	914	-14.86299991607666	-40.862998962402344
BLM00085152	San Borja/Capt Germ	194	-14.866999626159668	-66.75
BLM00085153	San Ignacio De Moxo	241	-14.967000007629395	-65.63300323486328
BR057043270	Monte Azul	603	-15.083000183105469	-42.75
PEM00084735	Juliaca	3826	-15.467000007629395	-70.15799713134766
BLM00085175	Ascencion Guarayos	247	-15.717000007629395	-63.099998474121094
BRM00083358	Poxoreo (Poxoreu)	450	-15.833000183105469	-54.382999420166016
BR001657003	Caceres	118	-16.049999237060547	-57.68299865722656
BLM00085196	Concepcion	497	-16.25	-62.099998474121094
BLM00085195	San Javier	520	-16.267000198364258	-62.46699905395508
PE000084752	Arequipa	2520	-16.332000732421875	-71.56700134277344
BLM00085210	San Matias	124	-16.33300018310547	-58.382999420166016
BLM00085207	San Ignacio Velasco	413	-16.367000579833984	-60.95000076293945
BLM00085201	El Alto Intl	4062	-16.51300048828125	-68.19200134277344
BR057324290	Montes Claros	668	-16.716999053955078	-43.867000579833984
BR001746008	Paracatu	711	-17.216999053955078	-46.867000579833984
BL000085223	Cochabamba	4294966296	-17.420000076293945	-66.18000030517578
BL000085230	Charana	4294966296	-17.579999923706055	-69.5999984741211
BLM00085244	Viru Viru Intl	373	-17.645000457763672	-63.1349983215332
BR058514530	Caravelas	3	-17.732999801635742	-39.25
BLM00085245	El Trompillo	418	-17.812000274658203	-63.17100143432617
BLM00085247	San Jose	284	-17.83300018310547	-60.75
BLM00085242	Juan Mendoza	3702	-17.96299934387207	-67.07599639892578
PEM00084782	Coronel Carlos Ciriani Santa	469	-18.05299949645996	-70.2760009765625
BLM00085268	Robore (Civ/Mil)	284	-18.316999435424805	-59.75
BLM00085264	Vallegrande	1998	-18.466999053955078	-64.0999984741211
BR001846000	Patos De Minas	940	-18.600000381469727	-46.516998291015625
BLM00085289	Tte De Av Salvador Ogaya G	134	-18.975000381469727	-57.82099914550781
BLM00085283	Juana Azurduy De Padilla	2904	-19.006999969482422	-65.28900146484375
BR001957002	Corumba	141	-19.08300018310547	-57.5
PAM00086011	Adrian Jara	150	-19.533000946044922	-59.367000579833984
BLM00085293	Capitan Nicolas Rojas	3936	-19.542999267578125	-65.7239990234375
BR001946002	Araxa	1004	-19.566999435424805	-46.93299865722656
BRM00083587	Tancredo Neves Intl	828	-19.634000778198242	-43.96900177001953
BLM00085312	Monteagudo	992	-19.783000946044922	-63.91699981689453
BRM00083592	Caratinga	609	-19.799999237060547	-42.150001525878906
BRM00083566	Belo Horizonte (Confins) *	0	-19.83300018310547	-43.91699981689453
BR002045001	Bambui	661	-20.0	-45.983001708984375
BLM00085315	Camiri	792	-20.049999237060547	-63.56700134277344
PA000086033	Bahia Negra	96	-20.229999542236328	-58.16699981689453
BR00B6-0360	Votuporanga	503	-20.41699981689453	-49.983001708984375
BR00C5-0040	Catanduva	536	-21.132999420166016	-48.96699905395508
BR002141004	Itaperuna	123	-21.200000762939453	-41.882999420166016
BLM00085345	Tcnl Rafael Pabon	398	-21.2549991607666	-63.40599822998047
BL000085364	Tarija	1854	-21.549999237060547	-64.69999694824219
BRM00083698	Bartolomeu Lisandro	17	-21.697999954223633	-41.301998138427734
BR002143012	Juiz De Fora	911	-21.767000198364258	-43.349998474121094
BL000085365	Yacuiba	4294966296	-21.950000762939453	-63.650001525878906
PA000086068	Mariscal Estigarrib	172	-22.017000198364258	-60.599998474121094
BR002241001	Sao Tome	4	-22.049999237060547	-41.04999923706055
AR000087007	La Quiaca Observato	3479	-22.100000381469727	-65.5999984741211
BR00D8-0390	Presidente Prudente	450	-22.117000579833984	-51.382999420166016
PA000086086	Puerto Casado	87	-22.283000946044922	-57.93299865722656
BR00D6-0010	Bauru	617	-22.316999435424805	-49.117000579833984
PAM00086065	Pelayo Prat Gill	220	-22.549999237060547	-61.54999923706055
PAM00086097	Pedro Juan Caballero	652	-22.600000381469727	-55.83300018310547
ARM00087022	General Enrique Mosconi Tarta	449	-22.6200008392334	-63.79399871826172
BLM00085394	Bermejo	381	-22.767000198364258	-64.31700134277344
BRM00083746	Galeao Antonio Carlos Jobim	9	-22.80900001525879	-43.24399948120117
BR00E4-1230	Campinas (Aeroporto	661	-23.0	-47.132999420166016
ARM00087016	Oran	356	-23.152999877929688	-64.3290023803711
BR002351003	Londrina (Aeroporto	569	-23.33300018310547	-51.132999420166016
PA000086134	Concepcion	74	-23.43000030517578	-57.41699981689453
PAM00086128	Pozo Colorado	99	-23.5	-58.78300094604492
BR00E3-0520	Sao Paulo (Aeroport	802	-23.617000579833984	-46.650001525878906
PAM00086210	Saltos Del Guaira	265	-24.033000946044922	-54.349998474121094
PAM00086185	San Pedro	80	-24.066999435424805	-57.08300018310547
ARM00087046	Jujuy	920	-24.39299964904785	-65.0979995727539
PAM00086192	San Estanislao	192	-24.66699981689453	-56.43299865722656
AR000087078	Las Lomitas	130	-24.700000762939453	-60.58300018310547
PAM00086170	Gral. Bruguez	86	-24.75	-58.83300018310547
AR000870470	Salta Aero	1246	-24.850000381469727	-65.48300170898438
PAM00086218	Silvio Pettirossi Intl	89	-25.239999771118164	-57.51900100708008
PAM00086246	Aeropuerto Int. Guarani	236	-25.450000762939453	-54.83300018310547
PAM00086234	Coronel Oviedo	163	-25.466999053955078	-56.400001525878906
BR002548005	Paranagua	5	-25.517000198364258	-48.516998291015625
PA000086248	Ciudad Del Este	196	-25.533000946044922	-54.599998474121094
BRM00083827	Cataratas Intl	240	-25.59600067138672	-54.48699951171875
PAM00086221	Paraguari	116	-25.632999420166016	-57.132999420166016
BR002554002	Iguazu Aero	279	-25.732999801635742	-54.46699905395508
PAM00086233	Villarrica	161	-25.767000198364258	-56.43299865722656
PAM00086268	Caazapa	140	-26.183000564575195	-56.367000579833984
ARM00087162	Formosa	59	-26.21299934387207	-58.22800064086914
PAM00086260	San Juan Bautista	126	-26.66699981689453	-57.150001525878906
ARM00087148	Presidencia Roque Saenz Pena	93	-26.732999801635742	-60.483001708984375
ARM00087121	Teniente Benjamin Matienzo	456	-26.840999603271484	-65.1050033569336
PAM00086255	Pilar	56	-26.850000381469727	-58.31700134277344
PAM00086285	Capitan Meza	248	-26.933000564575195	-55.20000076293945
PA000086297	Encarnacion	91	-27.299999237060547	-55.900001525878906
ARM00087178	Posadas	131	-27.38599967956543	-55.97100067138672
ARM00087166	Corrientes	62	-27.445999145507812	-58.762001037597656
AR000087155	Resistencia Aero	53	-27.450000762939453	-59.04999923706055
AR000087129	Santiago Del Estero	200	-27.767000198364258	-64.30000305175781
ARM00087222	Catamarca	464	-28.59600067138672	-65.75199890136719
AR000087270	Reconquista Aero	53	-29.183000564575195	-59.70000076293945
AR000087217	La Rioja Aero.	438	-29.382999420166016	-66.81700134277344
ARM00087289	Paso De Los Libres	70	-29.68899917602539	-57.152000427246094
BR002957005	Uruguaiana (Aeropor	78	-29.783000946044922	-57.03300094604492
AR000087257	Ceres Aero	88	-29.882999420166016	-61.95000076293945
ARM00087244	Villa Maria Del Rio	341	-29.899999618530273	-63.68299865722656
UY000086315	Bella Union	53	-30.267000198364258	-57.58300018310547
AR000000011	Monte Caseros Aero	53	-30.267000198364258	-57.650001525878906
ARM00087320	Chamical Aero	461	-30.367000579833984	-66.28299713134766
UY000086330	Est.Met.Artigas	121	-30.399999618530273	-56.52000045776367
UYM00086350	Presidente General Don Oscar	223	-30.975000381469727	-55.47600173950195
ARM00087395	Comodoro Pierrestegui	34	-31.297000885009766	-57.99700164794922
AR000087344	Cordoba Aero	489	-31.316999435424805	-64.21700286865234
UY000086360	Salto	33	-31.433000564575195	-57.96699905395508
ARM00087311	San Juan	597	-31.570999145507812	-68.41799926757812
ARM00087349	Pilar Observatorio	338	-31.66699981689453	-63.882999420166016
UY000001405	Tacuarembo	134	-31.700000762939453	-55.983001708984375
AR000087374	Parana Aero	74	-31.783000946044922	-60.483001708984375
ARM00087328	Villa Dolores	584	-31.94499969482422	-65.14600372314453
UY000086430	Paysandu	61	-32.33300018310547	-58.03300094604492
UY000001709	Melo	100	-32.349998474121094	-54.18299865722656
UY000001856	Young	80	-32.68299865722656	-57.632999420166016
ARM00087467	Marcos Juarez	110	-32.683998107910156	-62.15800094604492
UY000001915	Paso De Los Toros	75	-32.79999923706055	-56.516998291015625
AR000087418	Mendoza Aero	704	-32.83300018310547	-68.78299713134766
ARM00087480	Rosario	26	-32.90399932861328	-60.78499984741211
ARM00087497	Gualeguaychu	23	-33.0099983215332	-58.612998962402344
ARM00087416	San Martin	653	-33.08300018310547	-68.41699981689453
ARM00087453	Rio Cuarto Area De Material	421	-33.084999084472656	-64.26100158691406
UYM00086500	Treinta Y Tres	46	-33.21699905395508	-54.382999420166016
UY000086490	Mercedes	17	-33.25	-58.06700134277344
ARM00087436	San Luis	710	-33.27299880981445	-66.35600280761719
UY000002206	Durazno	92	-33.349998474121094	-56.5
ARM00087448	Villa Reynolds	485	-33.72999954223633	-65.38700103759766
AR000087534	Laboulaye Aero	137	-34.132999420166016	-63.367000579833984
UYM00086560	Laguna De Los Patos Intl	21	-34.45600128173828	-57.770999908447266
UY000086565	Rocha	18	-34.483001708984375	-54.29999923706055
ARM00087548	Junin	80	-34.54600143432617	-60.930999755859375
ARM00087582	Aeroparque Jorge Newbery	6	-34.558998107910156	-58.41600036621094
AR000875850	Buenos Aires Observ	25	-34.58300018310547	-58.483001708984375
ARM00087509	San Rafael	753	-34.5880012512207	-68.40299987792969
ARM00087576	Ministro Pistarini	20	-34.821998596191406	-58.5359992980957
UYM00086580	Carrasco Intl	32	-34.8380012512207	-56.03099822998047
ARM00087593	La Plata	22	-34.97200012207031	-57.89500045776367
ARM00087506	Malargue	1430	-35.49399948120117	-69.5739974975586
ARM00087532	General Pico	140	-35.69599914550781	-63.757999420166016
AR000875440	Pehuajo Aero	85	-35.867000579833984	-61.900001525878906
ARM00087563	Las Flores	38	-36.06700134277344	-59.099998474121094
ARM00087640	Bolivar Aero	94	-36.20000076293945	-61.06700134277344
ARM00087648	Dolores Airport	9	-36.349998474121094	-57.733001708984375
AR000087623	Santa Rosa Aero	192	-36.56700134277344	-64.26599884033203
ARM00087641	Azul Aero	147	-36.83300018310547	-59.882999420166016
ARM00087645	Tandil	175	-37.23699951171875	-59.22800064086914
AR000087692	Mar Del Plata Aero	22	-37.93299865722656	-57.58300018310547
ARM00087688	Tres Arroyos	122	-38.387001037597656	-60.33000183105469
AR000877500	Bahia Blanca Aero	75	-38.733001708984375	-62.16699981689453
AR000087715	Neuquen Aero	273	-38.95000076293945	-68.13300323486328
ARM00087784	San Antonio Oeste Aero	20	-40.78300094604492	-65.0999984741211
ARM00087791	Gobernador Castello	6	-40.86899948120117	-63.0
ARM00087765	San Carlos De Bariloche	846	-41.1510009765625	-71.15799713134766
ARM00087774	Maquinchao	888	-41.25	-68.73300170898438
ARM00087800	El Bolson	345	-41.94300079345703	-71.53199768066406
AR000087803	Esquel Aero	799	-42.93299865722656	-71.1500015258789
AR000087828	Trelew Aero	43	-43.20000076293945	-65.26599884033203
NZM00093781	Christchurch Intl	38	-43.48899841308594	172.53199768066406
ASN00094010	Cape Bruny Lighthouse	55	-43.489200592041016	147.14500427246094
ARM00087814	Paso De Indios	460	-43.81700134277344	-68.88300323486328
NZ000939870	Chatham Islands Aws	49	-43.95000076293945	-176.56700134277344
AR000087860	Comodoro Rivadavia	58	-45.78300094604492	-67.5
NZ000093844	Invercargill Airpor	2	-46.41699981689453	168.33299255371094
FSM00061997	Alfred Faure (Iles Crozet)	142	-46.43299865722656	51.849998474121094
ARM00087852	Perito Moreno Arpt	429	-46.516998291015625	-71.01699829101562
SF000068994	Marion Island	21	-46.882999420166016	37.867000579833984
ARM00087896	Puerto Deseado	81	-47.73500061035156	-65.90399932861328
ARM00087880	Gobernador Gregores	356	-48.78300094604492	-70.16699981689453
ARM00087909	San Julian	58	-49.30699920654297	-67.8030014038086
FRM00061998	Port-Aux-Francais (Iles Kergu	30	-49.349998474121094	70.25
ARM00087904	El Calafate Aero	204	-50.266998291015625	-72.05000305175781
ARM00087903	Lago Argentino Arpt	220	-50.33300018310547	-72.30000305175781
NZM00093929	Enderby Island Aws	40	-50.483001708984375	166.3000030517578
AR000087925	Rio Gallegos Aero	19	-51.617000579833984	-69.28299713134766
FKM00088889	Mount Pleasant	74	-51.823001861572266	-58.446998596191406
NZ000939450	Campbell Island Aws	19	-52.54999923706055	169.16700744628906
ARM00087934	Rio Grande	20	-53.77799987792969	-67.7490005493164
SXM00088903	Grytviken	3	-54.28300094604492	-36.5
ASM00094998	Macquarie Island	8	-54.499000549316406	158.93699645996094
ARM00087938	Ushuaia Malvinas Argentinas	22	-54.84299850463867	-68.2959976196289
AYM00088968	Base Orcadas	8	-60.733001708984375	-44.733001708984375
AYM00089054	Dinamet-Uruguay	17	-62.18299865722656	-58.849998474121094
AYM00089050	Bellingshausen Aws	14	-62.18299865722656	-58.882999420166016
AYM00089056	Centro Met. Antartico Pdte. E	48	-62.18299865722656	-58.983001708984375
AYM00089251	King Sejong	11	-62.21699905395508	-58.75
AYM00089058	Great Wall	10	-62.21699905395508	-58.96699905395508
AYM00089053	Base Jubany	11	-62.233001708984375	-58.632999420166016
AYM00089057	Base Arturo Prat	5	-62.5	-59.68299865722656
AYM00089059	Base Bernardo O'Higgins	10	-63.31700134277344	-56.68299865722656
AYM00088963	Base Esperanza	24	-63.400001525878906	-56.983001708984375
AYM00089055	Base Marambio	198	-64.23300170898438	-56.71699905395508
AYM00089061	Palmer Station	8	-64.76599884033203	-64.08300018310547
AYM00089063	Vernadsky	11	-65.25	-64.26699829101562
AYM00089611	Casey	41	-66.28299713134766	110.51699829101562
AYM00089592	Mirnyj	40	-66.55000305175781	93.01699829101562
AYM00089642	Dumont D'Urville	43	-66.66699981689453	140.01699829101562
AYM00089062	Rothera	33	-67.56700134277344	-68.11699676513672
AYM00089564	Mawson	16	-67.5999984741211	62.867000579833984
AYM00089542	Molodeznaja	50	-67.66699981689453	45.849998474121094
AYM00089066	Base San Martin	7	-68.11699676513672	-67.13300323486328
AYM00089571	Davis	13	-68.58300018310547	77.94999694824219
AYM00089532	Syowa	21	-69.0	39.58300018310547
AYM00089574	Progress	64	-69.38300323486328	76.38300323486328
AYM00089657	Leningradskaya	291	-69.5	159.38299560546875
AYM00089001	Sanae Saf-Base	62	-70.30000305175781	-2.3499999046325684
AYM00089002	Neumayer	50	-70.66699981689453	-8.25
AYM00089512	Novolazarevskaja	119	-70.76699829101562	11.833000183105469
AYM00089514	Maitri	4294966296	-70.76699829101562	11.75
AYM00089004	S.A.N.A.E. Aws	817	-71.69999694824219	-2.799999952316284
AYM00089504	Troll In Antarktis	1270	-72.01699829101562	2.382999897003174
AYM00089662	Base Baia Terra Nova	92	-74.69999694824219	164.10000610351562
AYM00089022	Halley	30	-75.44999694824219	-26.216999053955078
AYW00087602	Marble Point	48	-77.41670227050781	163.68299865722656
AYM00089034	Base Belgrano Ii	256	-77.86699676513672	-34.617000579833984
AYM00089664	Mcmurdo Sound Naf	24	-77.88330078125	166.73300170898438
AYM00089606	Vostok	3488	-78.44999694824219	106.86699676513672
AYW00090001	Amundsen-Scott	4294966296	-90.0	0.0
